<?xml version="1.0" encoding="UTF-8"?>
<citynames>
<element>
<admin_name>Delhi</admin_name>
<capital>admin</capital>
<city>Delhi</city>
<country>India</country>
<iso2>IN</iso2>
<lat>28.6600</lat>
<lng>77.2300</lng>
<population>29617000</population>
<population_proper>16753235</population_proper>
</element>
<element>
<admin_name>Maharashtra</admin_name>
<capital>admin</capital>
<city>Mumbai</city>
<country>India</country>
<iso2>IN</iso2>
<lat>18.9667</lat>
<lng>72.8333</lng>
<population>23355000</population>
<population_proper>12478447</population_proper>
</element>
<element>
<admin_name>West Bengal</admin_name>
<capital>admin</capital>
<city>Kolkata</city>
<country>India</country>
<iso2>IN</iso2>
<lat>22.5411</lat>
<lng>88.3378</lng>
<population>17560000</population>
<population_proper>4496694</population_proper>
</element>
<element>
<admin_name>Karnataka</admin_name>
<capital>admin</capital>
<city>Bangalore</city>
<country>India</country>
<iso2>IN</iso2>
<lat>12.9699</lat>
<lng>77.5980</lng>
<population>13707000</population>
<population_proper>8443675</population_proper>
</element>
<element>
<admin_name>Tamil Nadu</admin_name>
<capital>admin</capital>
<city>Chennai</city>
<country>India</country>
<iso2>IN</iso2>
<lat>13.0825</lat>
<lng>80.2750</lng>
<population>11324000</population>
<population_proper>6727000</population_proper>
</element>
<element>
<admin_name>Telangana</admin_name>
<capital>admin</capital>
<city>Hyderabad</city>
<country>India</country>
<iso2>IN</iso2>
<lat>17.3667</lat>
<lng>78.4667</lng>
<population>9746000</population>
<population_proper>6993262</population_proper>
</element>
<element>
<admin_name>Maharshtra</admin_name>
<capital/>
<city>Pune</city>
<country>India</country>
<iso2>IN</iso2>
<lat>18.5196</lat>
<lng>73.8553</lng>
<population>7764000</population>
<population_proper>3124458</population_proper>
</element>
<element>
<admin_name>Gujarat</admin_name>
<capital>minor</capital>
<city>Ahmadabad</city>
<country>India</country>
<iso2>IN</iso2>
<lat>23.0300</lat>
<lng>72.5800</lng>
<population>7410000</population>
<population_proper>5570585</population_proper>
</element>
<element>
<admin_name>Gujarat</admin_name>
<capital/>
<city>Surat</city>
<country>India</country>
<iso2>IN</iso2>
<lat>21.1700</lat>
<lng>72.8300</lng>
<population>5807000</population>
<population_proper>4466826</population_proper>
</element>
<element>
<admin_name>Uttar Pradesh</admin_name>
<capital>admin</capital>
<city>Lucknow</city>
<country>India</country>
<iso2>IN</iso2>
<lat>26.8470</lat>
<lng>80.9470</lng>
<population>3382000</population>
<population_proper>3382000</population_proper>
</element>
<element>
<admin_name>Rajasthan</admin_name>
<capital>admin</capital>
<city>Jaipur</city>
<country>India</country>
<iso2>IN</iso2>
<lat>26.9167</lat>
<lng>75.8667</lng>
<population>3073350</population>
<population_proper>3073350</population_proper>
</element>
<element>
<admin_name>Uttar Pradesh</admin_name>
<capital/>
<city>Cawnpore</city>
<country>India</country>
<iso2>IN</iso2>
<lat>26.4725</lat>
<lng>80.3311</lng>
<population>2701324</population>
<population_proper>2701324</population_proper>
</element>
<element>
<admin_name>Uttar Pradesh</admin_name>
<capital/>
<city>Mirzapur</city>
<country>India</country>
<iso2>IN</iso2>
<lat>25.1500</lat>
<lng>82.5800</lng>
<population>2496970</population>
<population_proper>2496970</population_proper>
</element>
<element>
<admin_name>Maharashtra</admin_name>
<capital/>
<city>Nagpur</city>
<country>India</country>
<iso2>IN</iso2>
<lat>21.1539</lat>
<lng>79.0831</lng>
<population>2405665</population>
<population_proper>2405665</population_proper>
</element>
<element>
<admin_name>Uttar Pradesh</admin_name>
<capital/>
<city>Ghaziabad</city>
<country>India</country>
<iso2>IN</iso2>
<lat>28.6667</lat>
<lng>77.4167</lng>
<population>2381452</population>
<population_proper>2381452</population_proper>
</element>
<element>
<admin_name>Madhya Pradesh</admin_name>
<capital/>
<city>Indore</city>
<country>India</country>
<iso2>IN</iso2>
<lat>22.7206</lat>
<lng>75.8472</lng>
<population>2201927</population>
<population_proper>2201927</population_proper>
</element>
<element>
<admin_name>Gujarat</admin_name>
<capital/>
<city>Vadodara</city>
<country>India</country>
<iso2>IN</iso2>
<lat>22.3000</lat>
<lng>73.2000</lng>
<population>2065771</population>
<population_proper>2065771</population_proper>
</element>
<element>
<admin_name>Andhra Pradesh</admin_name>
<capital/>
<city>Vishakhapatnam</city>
<country>India</country>
<iso2>IN</iso2>
<lat>17.7333</lat>
<lng>83.3167</lng>
<population>2035922</population>
<population_proper>2035922</population_proper>
</element>
<element>
<admin_name>Madhya Pradesh</admin_name>
<capital>admin</capital>
<city>Bhopal</city>
<country>India</country>
<iso2>IN</iso2>
<lat>23.2500</lat>
<lng>77.4167</lng>
<population>1883381</population>
<population_proper>1883381</population_proper>
</element>
<element>
<admin_name>Maharashtra</admin_name>
<capital/>
<city>Chinchvad</city>
<country>India</country>
<iso2>IN</iso2>
<lat>18.6278</lat>
<lng>73.8131</lng>
<population>1729320</population>
<population_proper>1729320</population_proper>
</element>
<element>
<admin_name>Bihar</admin_name>
<capital>admin</capital>
<city>Patna</city>
<country>India</country>
<iso2>IN</iso2>
<lat>25.6100</lat>
<lng>85.1414</lng>
<population>1684222</population>
<population_proper>1684222</population_proper>
</element>
<element>
<admin_name>Punjab</admin_name>
<capital/>
<city>Ludhiana</city>
<country>India</country>
<iso2>IN</iso2>
<lat>30.9083</lat>
<lng>75.8486</lng>
<population>1649000</population>
<population_proper>1545368</population_proper>
</element>
<element>
<admin_name>Uttar Pradesh</admin_name>
<capital/>
<city>Agra</city>
<country>India</country>
<iso2>IN</iso2>
<lat>27.1800</lat>
<lng>78.0200</lng>
<population>1585705</population>
<population_proper>1585705</population_proper>
</element>
<element>
<admin_name>Maharashtra</admin_name>
<capital/>
<city>Kalyan</city>
<country>India</country>
<iso2>IN</iso2>
<lat>19.2502</lat>
<lng>73.1602</lng>
<population>1576614</population>
<population_proper>1576614</population_proper>
</element>
<element>
<admin_name>Tamil Nadu</admin_name>
<capital>minor</capital>
<city>Madurai</city>
<country>India</country>
<iso2>IN</iso2>
<lat>9.9197</lat>
<lng>78.1194</lng>
<population>1561129</population>
<population_proper>1561129</population_proper>
</element>
<element>
<admin_name>Jharkhand</admin_name>
<capital/>
<city>Jamshedpur</city>
<country>India</country>
<iso2>IN</iso2>
<lat>22.8000</lat>
<lng>86.1833</lng>
<population>1558000</population>
<population_proper>1558000</population_proper>
</element>
<element>
<admin_name>Maharashtra</admin_name>
<capital/>
<city>Nasik</city>
<country>India</country>
<iso2>IN</iso2>
<lat>20.0000</lat>
<lng>73.7833</lng>
<population>1486053</population>
<population_proper>1486053</population_proper>
</element>
<element>
<admin_name>Haryana</admin_name>
<capital/>
<city>Faridabad</city>
<country>India</country>
<iso2>IN</iso2>
<lat>28.4333</lat>
<lng>77.3167</lng>
<population>1394000</population>
<population_proper>1394000</population_proper>
</element>
<element>
<admin_name>Maharashtra</admin_name>
<capital/>
<city>Aurangabad</city>
<country>India</country>
<iso2>IN</iso2>
<lat>19.8800</lat>
<lng>75.3200</lng>
<population>1371330</population>
<population_proper>1371330</population_proper>
</element>
<element>
<admin_name>Gujarat</admin_name>
<capital/>
<city>Rajkot</city>
<country>India</country>
<iso2>IN</iso2>
<lat>22.2969</lat>
<lng>70.7984</lng>
<population>1335397</population>
<population_proper>1335397</population_proper>
</element>
<element>
<admin_name>Uttar Pradesh</admin_name>
<capital/>
<city>Meerut</city>
<country>India</country>
<iso2>IN</iso2>
<lat>28.9900</lat>
<lng>77.7000</lng>
<population>1305429</population>
<population_proper>1305429</population_proper>
</element>
<element>
<admin_name>Madhya Pradesh</admin_name>
<capital/>
<city>Jabalpur</city>
<country>India</country>
<iso2>IN</iso2>
<lat>23.1667</lat>
<lng>79.9333</lng>
<population>1267564</population>
<population_proper>1267564</population_proper>
</element>
<element>
<admin_name>Maharashtra</admin_name>
<capital/>
<city>Thane</city>
<country>India</country>
<iso2>IN</iso2>
<lat>19.1800</lat>
<lng>72.9633</lng>
<population>1261517</population>
<population_proper>1261517</population_proper>
</element>
<element>
<admin_name>Jharkhand</admin_name>
<capital/>
<city>Dhanbad</city>
<country>India</country>
<iso2>IN</iso2>
<lat>23.7928</lat>
<lng>86.4350</lng>
<population>1246000</population>
<population_proper>219636</population_proper>
</element>
<element>
<admin_name>Uttar Pradesh</admin_name>
<capital/>
<city>Allahabad</city>
<country>India</country>
<iso2>IN</iso2>
<lat>25.4550</lat>
<lng>81.8400</lng>
<population>1201000</population>
<population_proper>1073438</population_proper>
</element>
<element>
<admin_name>Uttar Pradesh</admin_name>
<capital/>
<city>Varanasi</city>
<country>India</country>
<iso2>IN</iso2>
<lat>25.3189</lat>
<lng>83.0128</lng>
<population>1198491</population>
<population_proper>1198491</population_proper>
</element>
<element>
<admin_name>Jammu and Kashmir</admin_name>
<capital>admin</capital>
<city>Srinagar</city>
<country>India</country>
<iso2>IN</iso2>
<lat>34.0911</lat>
<lng>74.8061</lng>
<population>1180570</population>
<population_proper>1180570</population_proper>
</element>
<element>
<admin_name>Punjab</admin_name>
<capital/>
<city>Amritsar</city>
<country>India</country>
<iso2>IN</iso2>
<lat>31.6167</lat>
<lng>74.8500</lng>
<population>1132383</population>
<population_proper>1132383</population_proper>
</element>
<element>
<admin_name>Uttar Pradesh</admin_name>
<capital/>
<city>Aligarh</city>
<country>India</country>
<iso2>IN</iso2>
<lat>27.8800</lat>
<lng>78.0800</lng>
<population>1131160</population>
<population_proper>1131160</population_proper>
</element>
<element>
<admin_name>Maharashtra</admin_name>
<capital/>
<city>Bhiwandi</city>
<country>India</country>
<iso2>IN</iso2>
<lat>19.3000</lat>
<lng>73.0667</lng>
<population>1125898</population>
<population_proper>1125898</population_proper>
</element>
<element>
<admin_name>Madhya Pradesh</admin_name>
<capital/>
<city>Gwalior</city>
<country>India</country>
<iso2>IN</iso2>
<lat>26.2150</lat>
<lng>78.1931</lng>
<population>1101981</population>
<population_proper>1101981</population_proper>
</element>
<element>
<admin_name>chhattishgarh</admin_name>
<capital/>
<city>Bhilai</city>
<country>India</country>
<iso2>IN</iso2>
<lat>21.2167</lat>
<lng>81.4333</lng>
<population>1097000</population>
<population_proper>1097000</population_proper>
</element>
<element>
<admin_name>West Bengal</admin_name>
<capital/>
<city>Haora</city>
<country>India</country>
<iso2>IN</iso2>
<lat>22.5900</lat>
<lng>88.3100</lng>
<population>1077075</population>
<population_proper>1077075</population_proper>
</element>
<element>
<admin_name>Jharkhand</admin_name>
<capital>admin</capital>
<city>Ranchi</city>
<country>India</country>
<iso2>IN</iso2>
<lat>23.3556</lat>
<lng>85.3347</lng>
<population>1073440</population>
<population_proper>1073440</population_proper>
</element>
<element>
<admin_name>Andhra Pradesh</admin_name>
<capital/>
<city>Bezwada</city>
<country>India</country>
<iso2>IN</iso2>
<lat>16.5167</lat>
<lng>80.6167</lng>
<population>1048240</population>
<population_proper>1048240</population_proper>
</element>
<element>
<admin_name>Chandigarh</admin_name>
<capital>admin</capital>
<city>Chandigarh</city>
<country>India</country>
<iso2>IN</iso2>
<lat>30.7353</lat>
<lng>76.7911</lng>
<population>1026459</population>
<population_proper>1026459</population_proper>
</element>
<element>
<admin_name>Karnataka</admin_name>
<capital/>
<city>Mysore</city>
<country>India</country>
<iso2>IN</iso2>
<lat>12.3086</lat>
<lng>76.6531</lng>
<population>1014227</population>
<population_proper>1014227</population_proper>
</element>
<element>
<admin_name>chhattishgarh</admin_name>
<capital>admin</capital>
<city>Raipur</city>
<country>India</country>
<iso2>IN</iso2>
<lat>21.2379</lat>
<lng>81.6337</lng>
<population>1010087</population>
<population_proper>1010087</population_proper>
</element>
<element>
<admin_name>Rajasthan</admin_name>
<capital/>
<city>Kota</city>
<country>India</country>
<iso2>IN</iso2>
<lat>25.1800</lat>
<lng>75.8300</lng>
<population>1001694</population>
<population_proper>1001694</population_proper>
</element>
<element>
<admin_name>Uttar Pradesh</admin_name>
<capital/>
<city>Bareilly</city>
<country>India</country>
<iso2>IN</iso2>
<lat>28.3640</lat>
<lng>79.4150</lng>
<population>1000000</population>
<population_proper>1000000</population_proper>
</element>
<element>
<admin_name>Rajasthan</admin_name>
<capital/>
<city>Jodhpur</city>
<country>India</country>
<iso2>IN</iso2>
<lat>26.2918</lat>
<lng>73.0168</lng>
<population>995000</population>
<population_proper>921476</population_proper>
</element>
<element>
<admin_name>Tamil Nadu</admin_name>
<capital/>
<city>Coimbatore</city>
<country>India</country>
<iso2>IN</iso2>
<lat>11.0000</lat>
<lng>76.9667</lng>
<population>959823</population>
<population_proper>959823</population_proper>
</element>
<element>
<admin_name>Assam</admin_name>
<capital>admin</capital>
<city>Dispur</city>
<country>India</country>
<iso2>IN</iso2>
<lat>26.1500</lat>
<lng>91.7700</lng>
<population>957352</population>
<population_proper>957352</population_proper>
</element>
<element>
<admin_name>Assam</admin_name>
<capital/>
<city>Guwahati</city>
<country>India</country>
<iso2>IN</iso2>
<lat>26.1667</lat>
<lng>91.7667</lng>
<population>957352</population>
<population_proper>957352</population_proper>
</element>
<element>
<admin_name>Maharashtra</admin_name>
<capital/>
<city>Solapur</city>
<country>India</country>
<iso2>IN</iso2>
<lat>17.6833</lat>
<lng>75.9167</lng>
<population>951558</population>
<population_proper>951558</population_proper>
</element>
<element>
<admin_name>Tamil Nadu</admin_name>
<capital/>
<city>Trichinopoly</city>
<country>India</country>
<iso2>IN</iso2>
<lat>10.8269</lat>
<lng>78.6928</lng>
<population>916857</population>
<population_proper>916857</population_proper>
</element>
<element>
<admin_name>Karnataka</admin_name>
<capital/>
<city>Hubli</city>
<country>India</country>
<iso2>IN</iso2>
<lat>15.3600</lat>
<lng>75.1250</lng>
<population>890000</population>
<population_proper>792804</population_proper>
</element>
<element>
<admin_name>Punjab</admin_name>
<capital/>
<city>Jalandhar</city>
<country>India</country>
<iso2>IN</iso2>
<lat>31.3256</lat>
<lng>75.5792</lng>
<population>873725</population>
<population_proper>873725</population_proper>
</element>
<element>
<admin_name>Odisha</admin_name>
<capital>admin</capital>
<city>Bhubaneshwar</city>
<country>India</country>
<iso2>IN</iso2>
<lat>20.2644</lat>
<lng>85.8281</lng>
<population>837737</population>
<population_proper>837737</population_proper>
</element>
<element>
<admin_name>Maharashtra</admin_name>
<capital/>
<city>Bhayandar</city>
<country>India</country>
<iso2>IN</iso2>
<lat>19.3000</lat>
<lng>72.8500</lng>
<population>814655</population>
<population_proper>814655</population_proper>
</element>
<element>
<admin_name>Uttar Pradesh</admin_name>
<capital/>
<city>Moradabad</city>
<country>India</country>
<iso2>IN</iso2>
<lat>28.8418</lat>
<lng>78.7568</lng>
<population>787000</population>
<population_proper>721139</population_proper>
</element>
<element>
<admin_name>Maharashtra</admin_name>
<capital/>
<city>Kolhapur</city>
<country>India</country>
<iso2>IN</iso2>
<lat>16.7000</lat>
<lng>74.2333</lng>
<population>750000</population>
<population_proper>561841</population_proper>
</element>
<element>
<admin_name>Kerala</admin_name>
<capital>admin</capital>
<city>Thiruvananthapuram</city>
<country>India</country>
<iso2>IN</iso2>
<lat>8.5000</lat>
<lng>76.8997</lng>
<population>743691</population>
<population_proper>743691</population_proper>
</element>
<element>
<admin_name>Uttar Pradesh</admin_name>
<capital/>
<city>Saharanpur</city>
<country>India</country>
<iso2>IN</iso2>
<lat>29.9640</lat>
<lng>77.5460</lng>
<population>705478</population>
<population_proper>705478</population_proper>
</element>
<element>
<admin_name>Telangana</admin_name>
<capital/>
<city>Warangal</city>
<country>India</country>
<iso2>IN</iso2>
<lat>17.9756</lat>
<lng>79.6011</lng>
<population>704570</population>
<population_proper>704570</population_proper>
</element>
<element>
<admin_name>Tamil Nadu</admin_name>
<capital/>
<city>Salem</city>
<country>India</country>
<iso2>IN</iso2>
<lat>11.6500</lat>
<lng>78.1667</lng>
<population>693236</population>
<population_proper>693236</population_proper>
</element>
<element>
<admin_name>Maharashtra</admin_name>
<capital/>
<city>Malegaon</city>
<country>India</country>
<iso2>IN</iso2>
<lat>20.5500</lat>
<lng>74.5500</lng>
<population>690844</population>
<population_proper>435362</population_proper>
</element>
<element>
<admin_name>Kerala</admin_name>
<capital/>
<city>Kochi</city>
<country>India</country>
<iso2>IN</iso2>
<lat>9.9667</lat>
<lng>76.2833</lng>
<population>677381</population>
<population_proper>677381</population_proper>
</element>
<element>
<admin_name>Uttar Pradesh</admin_name>
<capital/>
<city>Gorakhpur</city>
<country>India</country>
<iso2>IN</iso2>
<lat>26.7611</lat>
<lng>83.3667</lng>
<population>673446</population>
<population_proper>673446</population_proper>
</element>
<element>
<admin_name>Karnataka</admin_name>
<capital/>
<city>Shimoga</city>
<country>India</country>
<iso2>IN</iso2>
<lat>13.9304</lat>
<lng>75.5600</lng>
<population>654055</population>
<population_proper>319550</population_proper>
</element>
<element>
<admin_name>Tamil Nadu</admin_name>
<capital/>
<city>Tiruppur</city>
<country>India</country>
<iso2>IN</iso2>
<lat>11.1075</lat>
<lng>77.3398</lng>
<population>650000</population>
<population_proper>444543</population_proper>
</element>
<element>
<admin_name>Andhra Pradesh</admin_name>
<capital/>
<city>Guntur</city>
<country>India</country>
<iso2>IN</iso2>
<lat>16.3000</lat>
<lng>80.4500</lng>
<population>647508</population>
<population_proper>647508</population_proper>
</element>
<element>
<admin_name>Odisha</admin_name>
<capital/>
<city>Raurkela</city>
<country>India</country>
<iso2>IN</iso2>
<lat>22.2492</lat>
<lng>84.8828</lng>
<population>625831</population>
<population_proper>483629</population_proper>
</element>
<element>
<admin_name>Karnataka</admin_name>
<capital/>
<city>Mangalore</city>
<country>India</country>
<iso2>IN</iso2>
<lat>12.8703</lat>
<lng>74.8806</lng>
<population>623841</population>
<population_proper>623841</population_proper>
</element>
<element>
<admin_name>Maharashtra</admin_name>
<capital/>
<city>Nanded</city>
<country>India</country>
<iso2>IN</iso2>
<lat>19.1500</lat>
<lng>77.3333</lng>
<population>623708</population>
<population_proper>550564</population_proper>
</element>
<element>
<admin_name>Odisha</admin_name>
<capital/>
<city>Cuttack</city>
<country>India</country>
<iso2>IN</iso2>
<lat>20.4500</lat>
<lng>85.8667</lng>
<population>606007</population>
<population_proper>606007</population_proper>
</element>
<element>
<admin_name>Maharashtra</admin_name>
<capital/>
<city>Chanda</city>
<country>India</country>
<iso2>IN</iso2>
<lat>19.9500</lat>
<lng>79.3000</lng>
<population>595118</population>
<population_proper>328351</population_proper>
</element>
<element>
<admin_name>Uttarakhand</admin_name>
<capital>admin</capital>
<city>Dehra Dun</city>
<country>India</country>
<iso2>IN</iso2>
<lat>30.3180</lat>
<lng>78.0290</lng>
<population>578420</population>
<population_proper>578420</population_proper>
</element>
<element>
<admin_name>West Bengal</admin_name>
<capital/>
<city>Durgapur</city>
<country>India</country>
<iso2>IN</iso2>
<lat>23.5500</lat>
<lng>87.3200</lng>
<population>566517</population>
<population_proper>566517</population_proper>
</element>
<element>
<admin_name>West Bengal</admin_name>
<capital/>
<city>Asansol</city>
<country>India</country>
<iso2>IN</iso2>
<lat>23.6833</lat>
<lng>86.9667</lng>
<population>563917</population>
<population_proper>563917</population_proper>
</element>
<element>
<admin_name>Gujarat</admin_name>
<capital/>
<city>Bhavnagar</city>
<country>India</country>
<iso2>IN</iso2>
<lat>21.7650</lat>
<lng>72.1369</lng>
<population>554978</population>
<population_proper>464602</population_proper>
</element>
<element>
<admin_name>Maharashtra</admin_name>
<capital/>
<city>Amravati</city>
<country>India</country>
<iso2>IN</iso2>
<lat>20.9333</lat>
<lng>77.7500</lng>
<population>549370</population>
<population_proper>549370</population_proper>
</element>
<element>
<admin_name>Andhra Pradesh</admin_name>
<capital/>
<city>Nellore</city>
<country>India</country>
<iso2>IN</iso2>
<lat>14.4333</lat>
<lng>79.9667</lng>
<population>547621</population>
<population_proper>547621</population_proper>
</element>
<element>
<admin_name>Rajasthan</admin_name>
<capital/>
<city>Ajmer</city>
<country>India</country>
<iso2>IN</iso2>
<lat>26.4680</lat>
<lng>74.6390</lng>
<population>542321</population>
<population_proper>542321</population_proper>
</element>
<element>
<admin_name>Tamil Nadu</admin_name>
<capital/>
<city>Tinnevelly</city>
<country>India</country>
<iso2>IN</iso2>
<lat>8.7289</lat>
<lng>77.7081</lng>
<population>542200</population>
<population_proper>435844</population_proper>
</element>
<element>
<admin_name>Rajasthan</admin_name>
<capital/>
<city>Bikaner</city>
<country>India</country>
<iso2>IN</iso2>
<lat>28.0181</lat>
<lng>73.3169</lng>
<population>529007</population>
<population_proper>529007</population_proper>
</element>
<element>
<admin_name>Tripura</admin_name>
<capital>admin</capital>
<city>Agartala</city>
<country>India</country>
<iso2>IN</iso2>
<lat>23.8333</lat>
<lng>91.2667</lng>
<population>522613</population>
<population_proper>522613</population_proper>
</element>
<element>
<admin_name>Madhya Pradesh</admin_name>
<capital/>
<city>Ujjain</city>
<country>India</country>
<iso2>IN</iso2>
<lat>23.1828</lat>
<lng>75.7772</lng>
<population>515215</population>
<population_proper>515215</population_proper>
</element>
<element>
<admin_name>Uttar Pradesh</admin_name>
<capital/>
<city>Jhansi</city>
<country>India</country>
<iso2>IN</iso2>
<lat>25.4486</lat>
<lng>78.5696</lng>
<population>507000</population>
<population_proper>507000</population_proper>
</element>
<element>
<admin_name>Maharashtra</admin_name>
<capital/>
<city>Ulhasnagar</city>
<country>India</country>
<iso2>IN</iso2>
<lat>19.2167</lat>
<lng>73.1500</lng>
<population>506098</population>
<population_proper>506098</population_proper>
</element>
<element>
<admin_name>Karnataka</admin_name>
<capital/>
<city>Davangere</city>
<country>India</country>
<iso2>IN</iso2>
<lat>14.4667</lat>
<lng>75.9167</lng>
<population>503564</population>
<population_proper>435125</population_proper>
</element>
<element>
<admin_name>Jammu and Kashmir</admin_name>
<capital/>
<city>Jammu</city>
<country>India</country>
<iso2>IN</iso2>
<lat>32.7333</lat>
<lng>74.8500</lng>
<population>502197</population>
<population_proper>502197</population_proper>
</element>
<element>
<admin_name>Karnataka</admin_name>
<capital/>
<city>Belgaum</city>
<country>India</country>
<iso2>IN</iso2>
<lat>15.8667</lat>
<lng>74.5000</lng>
<population>488157</population>
<population_proper>488157</population_proper>
</element>
<element>
<admin_name>Karnataka</admin_name>
<capital/>
<city>Gulbarga</city>
<country>India</country>
<iso2>IN</iso2>
<lat>17.3333</lat>
<lng>76.8333</lng>
<population>483615</population>
<population_proper>481478</population_proper>
</element>
<element>
<admin_name>Gujarat</admin_name>
<capital/>
<city>Jamnagar</city>
<country>India</country>
<iso2>IN</iso2>
<lat>22.4700</lat>
<lng>70.0700</lng>
<population>479920</population>
<population_proper>479920</population_proper>
</element>
<element>
<admin_name>Maharashtra</admin_name>
<capital/>
<city>Dhulia</city>
<country>India</country>
<iso2>IN</iso2>
<lat>20.9000</lat>
<lng>74.7833</lng>
<population>479073</population>
<population_proper>366980</population_proper>
</element>
<element>
<admin_name>Bihar</admin_name>
<capital/>
<city>Gaya</city>
<country>India</country>
<iso2>IN</iso2>
<lat>24.7500</lat>
<lng>85.0167</lng>
<population>474093</population>
<population_proper>474093</population_proper>
</element>
<element>
<admin_name>Maharashtra</admin_name>
<capital/>
<city>Jalgaon</city>
<country>India</country>
<iso2>IN</iso2>
<lat>21.0167</lat>
<lng>75.5667</lng>
<population>460468</population>
<population_proper>460468</population_proper>
</element>
<element>
<admin_name>Andhra Pradesh</admin_name>
<capital/>
<city>Kurnool</city>
<country>India</country>
<iso2>IN</iso2>
<lat>15.8222</lat>
<lng>78.0350</lng>
<population>457633</population>
<population_proper>457633</population_proper>
</element>
<element>
<admin_name>Rajasthan</admin_name>
<capital/>
<city>Udaipur</city>
<country>India</country>
<iso2>IN</iso2>
<lat>24.5833</lat>
<lng>73.6833</lng>
<population>451100</population>
<population_proper>451100</population_proper>
</element>
<element>
<admin_name>Karnataka</admin_name>
<capital/>
<city>Bellary</city>
<country>India</country>
<iso2>IN</iso2>
<lat>15.1500</lat>
<lng>76.9150</lng>
<population>445388</population>
<population_proper>336681</population_proper>
</element>
<element>
<admin_name>Maharashtra</admin_name>
<capital/>
<city>Sangli</city>
<country>India</country>
<iso2>IN</iso2>
<lat>16.8667</lat>
<lng>74.5667</lng>
<population>436639</population>
<population_proper>436639</population_proper>
</element>
<element>
<admin_name>Tamil Nadu</admin_name>
<capital/>
<city>Tuticorin</city>
<country>India</country>
<iso2>IN</iso2>
<lat>8.7833</lat>
<lng>78.1333</lng>
<population>436094</population>
<population_proper>436094</population_proper>
</element>
<element>
<admin_name>Kerala</admin_name>
<capital>minor</capital>
<city>Calicut</city>
<country>India</country>
<iso2>IN</iso2>
<lat>11.2500</lat>
<lng>75.7667</lng>
<population>431560</population>
<population_proper>431560</population_proper>
</element>
<element>
<admin_name>Maharashtra</admin_name>
<capital/>
<city>Akola</city>
<country>India</country>
<iso2>IN</iso2>
<lat>20.7333</lat>
<lng>77.0000</lng>
<population>425817</population>
<population_proper>425817</population_proper>
</element>
<element>
<admin_name>Bihar</admin_name>
<capital/>
<city>Bhagalpur</city>
<country>India</country>
<iso2>IN</iso2>
<lat>25.2500</lat>
<lng>87.0167</lng>
<population>410210</population>
<population_proper>410210</population_proper>
</element>
<element>
<admin_name>Rajasthan</admin_name>
<capital/>
<city>Sikar</city>
<country>India</country>
<iso2>IN</iso2>
<lat>27.6119</lat>
<lng>75.1397</lng>
<population>400000</population>
<population_proper>237579</population_proper>
</element>
<element>
<admin_name>Karnataka</admin_name>
<capital/>
<city>Tumkur</city>
<country>India</country>
<iso2>IN</iso2>
<lat>13.3300</lat>
<lng>77.1000</lng>
<population>399606</population>
<population_proper>307359</population_proper>
</element>
<element>
<admin_name>Kerala</admin_name>
<capital/>
<city>Quilon</city>
<country>India</country>
<iso2>IN</iso2>
<lat>8.8853</lat>
<lng>76.5864</lng>
<population>397419</population>
<population_proper>397419</population_proper>
</element>
<element>
<admin_name>Uttar Pradesh</admin_name>
<capital/>
<city>Muzaffarnagar</city>
<country>India</country>
<iso2>IN</iso2>
<lat>29.4708</lat>
<lng>77.7033</lng>
<population>392451</population>
<population_proper>392451</population_proper>
</element>
<element>
<admin_name>Rajasthan</admin_name>
<capital/>
<city>Bhilwara</city>
<country>India</country>
<iso2>IN</iso2>
<lat>25.3500</lat>
<lng>74.6333</lng>
<population>389911</population>
<population_proper>326431</population_proper>
</element>
<element>
<admin_name>Telangana</admin_name>
<capital/>
<city>Nizamabad</city>
<country>India</country>
<iso2>IN</iso2>
<lat>18.6704</lat>
<lng>78.1000</lng>
<population>388505</population>
<population_proper>305438</population_proper>
</element>
<element>
<admin_name>West Bengal</admin_name>
<capital/>
<city>Bhatpara</city>
<country>India</country>
<iso2>IN</iso2>
<lat>22.8667</lat>
<lng>88.4167</lng>
<population>386019</population>
<population_proper>386019</population_proper>
</element>
<element>
<admin_name>Andhra Pradesh</admin_name>
<capital/>
<city>Kakinada</city>
<country>India</country>
<iso2>IN</iso2>
<lat>16.9333</lat>
<lng>82.2167</lng>
<population>384182</population>
<population_proper>384182</population_proper>
</element>
<element>
<admin_name>Maharashtra</admin_name>
<capital/>
<city>Parbhani</city>
<country>India</country>
<iso2>IN</iso2>
<lat>19.2704</lat>
<lng>76.7600</lng>
<population>378326</population>
<population_proper>289629</population_proper>
</element>
<element>
<admin_name>West Bengal</admin_name>
<capital/>
<city>Panihati</city>
<country>India</country>
<iso2>IN</iso2>
<lat>22.6900</lat>
<lng>88.3700</lng>
<population>377347</population>
<population_proper>377347</population_proper>
</element>
<element>
<admin_name>Maharashtra</admin_name>
<capital/>
<city>Latur</city>
<country>India</country>
<iso2>IN</iso2>
<lat>18.4004</lat>
<lng>76.5700</lng>
<population>374394</population>
<population_proper>348967</population_proper>
</element>
<element>
<admin_name>Haryana</admin_name>
<capital/>
<city>Rohtak</city>
<country>India</country>
<iso2>IN</iso2>
<lat>28.9000</lat>
<lng>76.5667</lng>
<population>374292</population>
<population_proper>374292</population_proper>
</element>
<element>
<admin_name>Tamil Nadu</admin_name>
<capital/>
<city>Rajapalaiyam</city>
<country>India</country>
<iso2>IN</iso2>
<lat>9.4204</lat>
<lng>77.5800</lng>
<population>369991</population>
<population_proper>307959</population_proper>
</element>
<element>
<admin_name>Maharashtra</admin_name>
<capital/>
<city>Ahmadnagar</city>
<country>India</country>
<iso2>IN</iso2>
<lat>19.0833</lat>
<lng>74.7333</lng>
<population>350859</population>
<population_proper>350859</population_proper>
</element>
<element>
<admin_name>Andhra Pradesh</admin_name>
<capital/>
<city>Cuddapah</city>
<country>India</country>
<iso2>IN</iso2>
<lat>14.4667</lat>
<lng>78.8167</lng>
<population>344893</population>
<population_proper>344893</population_proper>
</element>
<element>
<admin_name>Andhra Pradesh</admin_name>
<capital/>
<city>Rajahmundry</city>
<country>India</country>
<iso2>IN</iso2>
<lat>16.9833</lat>
<lng>81.7833</lng>
<population>341831</population>
<population_proper>341831</population_proper>
</element>
<element>
<admin_name>Rajasthan</admin_name>
<capital/>
<city>Alwar</city>
<country>India</country>
<iso2>IN</iso2>
<lat>27.5667</lat>
<lng>76.6167</lng>
<population>341422</population>
<population_proper>341422</population_proper>
</element>
<element>
<admin_name>Bihar</admin_name>
<capital/>
<city>Muzaffarpur</city>
<country>India</country>
<iso2>IN</iso2>
<lat>26.1200</lat>
<lng>85.3833</lng>
<population>333200</population>
<population_proper>333200</population_proper>
</element>
<element>
<admin_name>chhattishgarh</admin_name>
<capital/>
<city>Bilaspur</city>
<country>India</country>
<iso2>IN</iso2>
<lat>22.1500</lat>
<lng>82.0167</lng>
<population>331030</population>
<population_proper>331030</population_proper>
</element>
<element>
<admin_name>Uttar Pradesh</admin_name>
<capital/>
<city>Mathura</city>
<country>India</country>
<iso2>IN</iso2>
<lat>27.4833</lat>
<lng>77.6833</lng>
<population>330511</population>
<population_proper>330511</population_proper>
</element>
<element>
<admin_name>West Bengal</admin_name>
<capital/>
<city>Kamarhati</city>
<country>India</country>
<iso2>IN</iso2>
<lat>22.6700</lat>
<lng>88.3700</lng>
<population>330211</population>
<population_proper>330211</population_proper>
</element>
<element>
<admin_name>Punjab</admin_name>
<capital/>
<city>Patiala</city>
<country>India</country>
<iso2>IN</iso2>
<lat>30.3204</lat>
<lng>76.3850</lng>
<population>329224</population>
<population_proper>329224</population_proper>
</element>
<element>
<admin_name>Madhya Pradesh</admin_name>
<capital/>
<city>Saugor</city>
<country>India</country>
<iso2>IN</iso2>
<lat>23.8504</lat>
<lng>78.7500</lng>
<population>328240</population>
<population_proper>247333</population_proper>
</element>
<element>
<admin_name>Karnataka</admin_name>
<capital/>
<city>Bijapur</city>
<country>India</country>
<iso2>IN</iso2>
<lat>16.8244</lat>
<lng>75.7154</lng>
<population>327427</population>
<population_proper>327427</population_proper>
</element>
<element>
<admin_name>Odisha</admin_name>
<capital/>
<city>Brahmapur</city>
<country>India</country>
<iso2>IN</iso2>
<lat>19.3200</lat>
<lng>84.8000</lng>
<population>324726</population>
<population_proper>324726</population_proper>
</element>
<element>
<admin_name>Uttar Pradesh</admin_name>
<capital/>
<city>Shahjanpur</city>
<country>India</country>
<iso2>IN</iso2>
<lat>27.8804</lat>
<lng>79.9050</lng>
<population>320434</population>
<population_proper>320434</population_proper>
</element>
<element>
<admin_name>Kerala</admin_name>
<capital/>
<city>Trichur</city>
<country>India</country>
<iso2>IN</iso2>
<lat>10.5200</lat>
<lng>76.2100</lng>
<population>315596</population>
<population_proper>315596</population_proper>
</element>
<element>
<admin_name>West Bengal</admin_name>
<capital/>
<city>Barddhaman</city>
<country>India</country>
<iso2>IN</iso2>
<lat>23.2500</lat>
<lng>87.8500</lng>
<population>314265</population>
<population_proper>314265</population_proper>
</element>
<element>
<admin_name>West Bengal</admin_name>
<capital/>
<city>Kulti</city>
<country>India</country>
<iso2>IN</iso2>
<lat>23.7300</lat>
<lng>86.8500</lng>
<population>313809</population>
<population_proper>313809</population_proper>
</element>
<element>
<admin_name>Odisha</admin_name>
<capital/>
<city>Sambalpur</city>
<country>India</country>
<iso2>IN</iso2>
<lat>21.4704</lat>
<lng>83.9701</lng>
<population>310852</population>
<population_proper>162887</population_proper>
</element>
<element>
<admin_name>Bihar</admin_name>
<capital/>
<city>Purnea</city>
<country>India</country>
<iso2>IN</iso2>
<lat>25.7800</lat>
<lng>87.4700</lng>
<population>310817</population>
<population_proper>310817</population_proper>
</element>
<element>
<admin_name>Haryana</admin_name>
<capital/>
<city>Hisar</city>
<country>India</country>
<iso2>IN</iso2>
<lat>29.1489</lat>
<lng>75.7367</lng>
<population>307024</population>
<population_proper>307024</population_proper>
</element>
<element>
<admin_name>Uttar Pradesh</admin_name>
<capital/>
<city>Firozabad</city>
<country>India</country>
<iso2>IN</iso2>
<lat>27.1500</lat>
<lng>78.3949</lng>
<population>306409</population>
<population_proper>306409</population_proper>
</element>
<element>
<admin_name>Karnataka</admin_name>
<capital/>
<city>Bidar</city>
<country>India</country>
<iso2>IN</iso2>
<lat>17.9229</lat>
<lng>77.5175</lng>
<population>300136</population>
<population_proper>204071</population_proper>
</element>
<element>
<admin_name>Uttar Pradesh</admin_name>
<capital/>
<city>Rampur</city>
<country>India</country>
<iso2>IN</iso2>
<lat>28.8154</lat>
<lng>79.0250</lng>
<population>296418</population>
<population_proper>296418</population_proper>
</element>
<element>
<admin_name>West Bengal</admin_name>
<capital/>
<city>Shiliguri</city>
<country>India</country>
<iso2>IN</iso2>
<lat>26.7200</lat>
<lng>88.4200</lng>
<population>294546</population>
<population_proper>294546</population_proper>
</element>
<element>
<admin_name>West Bengal</admin_name>
<capital/>
<city>Bali</city>
<country>India</country>
<iso2>IN</iso2>
<lat>22.6500</lat>
<lng>88.3400</lng>
<population>293373</population>
<population_proper>293373</population_proper>
</element>
<element>
<admin_name>Haryana</admin_name>
<capital/>
<city>Panipat</city>
<country>India</country>
<iso2>IN</iso2>
<lat>29.4004</lat>
<lng>76.9700</lng>
<population>292808</population>
<population_proper>292808</population_proper>
</element>
<element>
<admin_name>Telangana</admin_name>
<capital/>
<city>Karimnagar</city>
<country>India</country>
<iso2>IN</iso2>
<lat>18.4333</lat>
<lng>79.1500</lng>
<population>289821</population>
<population_proper>289821</population_proper>
</element>
<element>
<admin_name>Gujarat</admin_name>
<capital/>
<city>Bhuj</city>
<country>India</country>
<iso2>IN</iso2>
<lat>23.2504</lat>
<lng>69.8100</lng>
<population>289429</population>
<population_proper>289429</population_proper>
</element>
<element>
<admin_name>Maharashtra</admin_name>
<capital/>
<city>Ichalkaranji</city>
<country>India</country>
<iso2>IN</iso2>
<lat>16.7000</lat>
<lng>74.4700</lng>
<population>287570</population>
<population_proper>287570</population_proper>
</element>
<element>
<admin_name>Andhra Pradesh</admin_name>
<capital/>
<city>Tirupati</city>
<country>India</country>
<iso2>IN</iso2>
<lat>13.6500</lat>
<lng>79.4200</lng>
<population>287482</population>
<population_proper>287482</population_proper>
</element>
<element>
<admin_name>Karnataka</admin_name>
<capital/>
<city>Hospet</city>
<country>India</country>
<iso2>IN</iso2>
<lat>15.2667</lat>
<lng>76.4000</lng>
<population>286007</population>
<population_proper>197846</population_proper>
</element>
<element>
<admin_name>Mizoram</admin_name>
<capital>admin</capital>
<city>Aizawl</city>
<country>India</country>
<iso2>IN</iso2>
<lat>23.7104</lat>
<lng>92.7200</lng>
<population>283021</population>
<population_proper>265331</population_proper>
</element>
<element>
<admin_name>Madhya Pradesh</admin_name>
<capital/>
<city>Sannai</city>
<country>India</country>
<iso2>IN</iso2>
<lat>24.1600</lat>
<lng>80.8300</lng>
<population>283004</population>
<population_proper>283004</population_proper>
</element>
<element>
<admin_name>West Bengal</admin_name>
<capital/>
<city>Barasat</city>
<country>India</country>
<iso2>IN</iso2>
<lat>22.2333</lat>
<lng>88.4500</lng>
<population>278435</population>
<population_proper>278435</population_proper>
</element>
<element>
<admin_name>Madhya Pradesh</admin_name>
<capital/>
<city>Ratlam</city>
<country>India</country>
<iso2>IN</iso2>
<lat>23.3167</lat>
<lng>75.0667</lng>
<population>273892</population>
<population_proper>273892</population_proper>
</element>
<element>
<admin_name>Jammu and Kashmir</admin_name>
<capital/>
<city>Handwara</city>
<country>India</country>
<iso2>IN</iso2>
<lat>34.4000</lat>
<lng>74.2800</lng>
<population>269311</population>
<population_proper>269311</population_proper>
</element>
<element>
<admin_name>chhattishgarh</admin_name>
<capital/>
<city>Drug</city>
<country>India</country>
<iso2>IN</iso2>
<lat>21.1900</lat>
<lng>81.2800</lng>
<population>268806</population>
<population_proper>268806</population_proper>
</element>
<element>
<admin_name>Manipur</admin_name>
<capital>admin</capital>
<city>Imphal</city>
<country>India</country>
<iso2>IN</iso2>
<lat>24.8200</lat>
<lng>93.9500</lng>
<population>268243</population>
<population_proper>268243</population_proper>
</element>
<element>
<admin_name>Andhra Pradesh</admin_name>
<capital/>
<city>Anantapur</city>
<country>India</country>
<iso2>IN</iso2>
<lat>14.6833</lat>
<lng>77.6000</lng>
<population>267161</population>
<population_proper>267161</population_proper>
</element>
<element>
<admin_name>Uttar Pradesh</admin_name>
<capital/>
<city>Etawah</city>
<country>India</country>
<iso2>IN</iso2>
<lat>26.7855</lat>
<lng>79.0150</lng>
<population>257448</population>
<population_proper>257448</population_proper>
</element>
<element>
<admin_name>Karnataka</admin_name>
<capital/>
<city>Raichur</city>
<country>India</country>
<iso2>IN</iso2>
<lat>16.2104</lat>
<lng>77.3550</lng>
<population>255240</population>
<population_proper>225962</population_proper>
</element>
<element>
<admin_name>Andhra Pradesh</admin_name>
<capital/>
<city>Ongole</city>
<country>India</country>
<iso2>IN</iso2>
<lat>15.5000</lat>
<lng>80.0500</lng>
<population>252739</population>
<population_proper>252739</population_proper>
</element>
<element>
<admin_name>Rajasthan</admin_name>
<capital/>
<city>Bharatpur</city>
<country>India</country>
<iso2>IN</iso2>
<lat>27.2172</lat>
<lng>77.4900</lng>
<population>252342</population>
<population_proper>252342</population_proper>
</element>
<element>
<admin_name>Bihar</admin_name>
<capital/>
<city>Begusarai</city>
<country>India</country>
<iso2>IN</iso2>
<lat>25.4200</lat>
<lng>86.1300</lng>
<population>252008</population>
<population_proper>252008</population_proper>
</element>
<element>
<admin_name>Haryana</admin_name>
<capital/>
<city>Sonipat</city>
<country>India</country>
<iso2>IN</iso2>
<lat>28.9958</lat>
<lng>77.0114</lng>
<population>250521</population>
<population_proper>250521</population_proper>
</element>
<element>
<admin_name>Telangana</admin_name>
<capital/>
<city>Ramgundam</city>
<country>India</country>
<iso2>IN</iso2>
<lat>18.8000</lat>
<lng>79.4500</lng>
<population>242979</population>
<population_proper>242979</population_proper>
</element>
<element>
<admin_name>Uttar Pradesh</admin_name>
<capital/>
<city>Hapur</city>
<country>India</country>
<iso2>IN</iso2>
<lat>28.7437</lat>
<lng>77.7628</lng>
<population>242920</population>
<population_proper>242920</population_proper>
</element>
<element>
<admin_name>West Bengal</admin_name>
<capital/>
<city>Uluberiya</city>
<country>India</country>
<iso2>IN</iso2>
<lat>22.4700</lat>
<lng>88.1100</lng>
<population>235345</population>
<population_proper>235345</population_proper>
</element>
<element>
<admin_name>Gujarat</admin_name>
<capital/>
<city>Porbandar</city>
<country>India</country>
<iso2>IN</iso2>
<lat>21.6425</lat>
<lng>69.6047</lng>
<population>234684</population>
<population_proper>138872</population_proper>
</element>
<element>
<admin_name>Rajasthan</admin_name>
<capital/>
<city>Pali</city>
<country>India</country>
<iso2>IN</iso2>
<lat>25.7725</lat>
<lng>73.3233</lng>
<population>229956</population>
<population_proper>229956</population_proper>
</element>
<element>
<admin_name>Andhra Pradesh</admin_name>
<capital/>
<city>Vizianagaram</city>
<country>India</country>
<iso2>IN</iso2>
<lat>18.1167</lat>
<lng>83.4167</lng>
<population>228720</population>
<population_proper>228720</population_proper>
</element>
<element>
<admin_name>Puducherry</admin_name>
<capital>admin</capital>
<city>Puducherry</city>
<country>India</country>
<iso2>IN</iso2>
<lat>11.9300</lat>
<lng>79.8300</lng>
<population>227411</population>
<population_proper>227411</population_proper>
</element>
<element>
<admin_name>Haryana</admin_name>
<capital/>
<city>Karnal</city>
<country>India</country>
<iso2>IN</iso2>
<lat>29.6804</lat>
<lng>76.9700</lng>
<population>225049</population>
<population_proper>225049</population_proper>
</element>
<element>
<admin_name>Tamil Nadu</admin_name>
<capital/>
<city>Nagercoil</city>
<country>India</country>
<iso2>IN</iso2>
<lat>8.1700</lat>
<lng>77.4300</lng>
<population>224329</population>
<population_proper>213858</population_proper>
</element>
<element>
<admin_name>Tamil Nadu</admin_name>
<capital/>
<city>Tanjore</city>
<country>India</country>
<iso2>IN</iso2>
<lat>10.8000</lat>
<lng>79.1500</lng>
<population>222943</population>
<population_proper>222943</population_proper>
</element>
<element>
<admin_name>Uttar Pradesh</admin_name>
<capital/>
<city>Sambhal</city>
<country>India</country>
<iso2>IN</iso2>
<lat>28.5800</lat>
<lng>78.5500</lng>
<population>220813</population>
<population_proper>220813</population_proper>
</element>
<element>
<admin_name>Himachal Pradesh</admin_name>
<capital>admin</capital>
<city>Shimla</city>
<country>India</country>
<iso2>IN</iso2>
<lat>31.1033</lat>
<lng>77.1722</lng>
<population>206575</population>
<population_proper>206575</population_proper>
</element>
<element>
<admin_name>Gujarat</admin_name>
<capital>admin</capital>
<city>Ghandinagar</city>
<country>India</country>
<iso2>IN</iso2>
<lat>23.2200</lat>
<lng>72.6800</lng>
<population>195891</population>
<population_proper>195891</population_proper>
</element>
<element>
<admin_name>Meghalaya</admin_name>
<capital>admin</capital>
<city>Shillong</city>
<country>India</country>
<iso2>IN</iso2>
<lat>25.5744</lat>
<lng>91.8789</lng>
<population>143229</population>
<population_proper>143229</population_proper>
</element>
<element>
<admin_name>Delhi</admin_name>
<capital>primary</capital>
<city>New Delhi</city>
<country>India</country>
<iso2>IN</iso2>
<lat>28.7000</lat>
<lng>77.2000</lng>
<population>142004</population>
<population_proper>142004</population_proper>
</element>
<element>
<admin_name>Andaman and Nicobar Islands</admin_name>
<capital>admin</capital>
<city>Port Blair</city>
<country>India</country>
<iso2>IN</iso2>
<lat>11.6667</lat>
<lng>92.7500</lng>
<population>127562</population>
<population_proper>112050</population_proper>
</element>
<element>
<admin_name>Sikkim</admin_name>
<capital>admin</capital>
<city>Gangtok</city>
<country>India</country>
<iso2>IN</iso2>
<lat>27.3300</lat>
<lng>88.6200</lng>
<population>100286</population>
<population_proper>100286</population_proper>
</element>
<element>
<admin_name>Nagaland</admin_name>
<capital>admin</capital>
<city>Kohima</city>
<country>India</country>
<iso2>IN</iso2>
<lat>25.6667</lat>
<lng>94.1194</lng>
<population>99039</population>
<population_proper>99039</population_proper>
</element>
<element>
<admin_name>Arunachal Pradesh</admin_name>
<capital>admin</capital>
<city>Itanagar</city>
<country>India</country>
<iso2>IN</iso2>
<lat>27.1000</lat>
<lng>93.6200</lng>
<population>59490</population>
<population_proper>59490</population_proper>
</element>
<element>
<admin_name>Goa</admin_name>
<capital>admin</capital>
<city>Panaji</city>
<country>India</country>
<iso2>IN</iso2>
<lat>15.4800</lat>
<lng>73.8300</lng>
<population>40017</population>
<population_proper>40017</population_proper>
</element>
<element>
<admin_name>Gujarat</admin_name>
<capital>admin</capital>
<city>Daman</city>
<country>India</country>
<iso2>IN</iso2>
<lat>20.4170</lat>
<lng>72.8500</lng>
<population>39737</population>
<population_proper>39737</population_proper>
</element>
<element>
<admin_name>Lakshadweep</admin_name>
<capital>admin</capital>
<city>Kavaratti</city>
<country>India</country>
<iso2>IN</iso2>
<lat>10.5626</lat>
<lng>72.6369</lng>
<population>10688</population>
<population_proper>10688</population_proper>
</element>
<element>
<admin_name>Haryana</admin_name>
<capital>minor</capital>
<city>Panchkula</city>
<country>India</country>
<iso2>IN</iso2>
<lat>30.6915</lat>
<lng>76.8537</lng>
<population/>
<population_proper/>
</element>
<element>
<admin_name>Telangana</admin_name>
<capital>minor</capital>
<city>Kagaznagar</city>
<country>India</country>
<iso2>IN</iso2>
<lat>19.3316</lat>
<lng>79.4661</lng>
<population/>
<population_proper/>
</element>
</citynames>